[{"name":"A Coruña","value":1,"formatted_address":"A Coruña, Spain","location":{"lat":43.3623436,"lng":-8.4115401}},{"name":"Adelaide","value":6,"formatted_address":"Adelaide SA, Australia","location":{"lat":-34.9284989,"lng":138.6007456}},{"name":"Ämnäs","value":1,"formatted_address":"Ämnäs 22410, Åland Islands","location":{"lat":60.21135220000001,"lng":19.9731429}},{"name":"Abergavenny","value":1,"formatted_address":"Abergavenny NP7, UK","location":{"lat":51.825366,"lng":-3.019423}},{"name":"Aachen","value":3,"formatted_address":"Aachen, Germany","location":{"lat":50.7753455,"lng":6.083886800000001}},{"name":"Altoona","value":1,"formatted_address":"Altoona, PA, USA","location":{"lat":40.5186809,"lng":-78.3947359}},{"name":"Alice Springs","value":1,"formatted_address":"Alice Springs NT 0870, Australia","location":{"lat":-23.698042,"lng":133.8807471}},{"name":"Amsterdam","value":12,"formatted_address":"Amsterdam, Netherlands","location":{"lat":52.3679843,"lng":4.9035614}},{"name":"Arnhem","value":1,"formatted_address":"Arnhem, Netherlands","location":{"lat":51.9851034,"lng":5.898729599999999}},{"name":"Auburn","value":1,"formatted_address":"Auburn, AL, USA","location":{"lat":32.6098566,"lng":-85.48078249999999}},{"name":"Antwerp","value":1,"formatted_address":"Antwerp, Belgium","location":{"lat":51.2194475,"lng":4.4024643}},{"name":"Aberdeen","value":1,"formatted_address":"Aberdeen, UK","location":{"lat":57.149717,"lng":-2.094278}},{"name":"Alstonville","value":1,"formatted_address":"Alstonville NSW 2477, Australia","location":{"lat":-28.8408655,"lng":153.4495841}},{"name":"Auckland","value":6,"formatted_address":"Auckland, New Zealand","location":{"lat":-36.8484597,"lng":174.7633315}},{"name":"Addis Ababa","value":1,"formatted_address":"Addis Ababa, Ethiopia","location":{"lat":8.9806034,"lng":38.7577605}},{"name":"Annapolis","value":1,"formatted_address":"Annapolis, MD, USA","location":{"lat":38.9784453,"lng":-76.4921829}},{"name":"Albany","value":2,"formatted_address":"Albany, NY, USA","location":{"lat":42.6525793,"lng":-73.7562317}},{"name":"Asheville","value":1,"formatted_address":"Asheville, NC, USA","location":{"lat":35.5950581,"lng":-82.5514869}},{"name":"Bangalore","value":5,"formatted_address":"Bengaluru, Karnataka, India","location":{"lat":12.9715987,"lng":77.5945627}},{"name":"Bamenda","value":1,"formatted_address":"Bamenda, Cameroon","location":{"lat":5.9630513,"lng":10.1591213}},{"name":"Ann Arbor","value":6,"formatted_address":"Ann Arbor, MI, USA","location":{"lat":42.2808256,"lng":-83.7430378}},{"name":"Annemasse","value":1,"formatted_address":"74100 Annemasse, France","location":{"lat":46.19325300000001,"lng":6.234158}},{"name":"Amersham","value":1,"formatted_address":"Amersham, UK","location":{"lat":51.6755179,"lng":-0.6072409999999999}},{"name":"Aberystwyth","value":1,"formatted_address":"Aberystwyth, UK","location":{"lat":52.41530299999999,"lng":-4.08292}},{"name":"Aalborg","value":1,"formatted_address":"Aalborg, Denmark","location":{"lat":57.0488195,"lng":9.921747}},{"name":"Ashford","value":1,"formatted_address":"8620 Spectrum Center Blvd, San Diego, CA 92123, USA","location":{"lat":32.8272973,"lng":-117.1418509}},{"name":"Austin","value":15,"formatted_address":"Austin, TX, USA","location":{"lat":30.267153,"lng":-97.7430608}},{"name":"Barrow upon Humber","value":1,"formatted_address":"Barrow upon Humber, Barrow-upon-Humber DN19 7SF, UK","location":{"lat":53.676332,"lng":-0.382574}},{"name":"Anchorage","value":2,"formatted_address":"Anchorage, AK, USA","location":{"lat":61.2180556,"lng":-149.9002778}},{"name":"Bedford (US)","value":1,"formatted_address":"Bedford, MA, USA","location":{"lat":42.4906231,"lng":-71.2760089}},{"name":"Anaheim","value":1,"formatted_address":"Anaheim, CA, USA","location":{"lat":33.8365932,"lng":-117.9143012}},{"name":"Albuquerque","value":1,"formatted_address":"Albuquerque, NM, USA","location":{"lat":35.0843859,"lng":-106.650422}},{"name":"Amsterdam ","value":2,"formatted_address":"Amsterdam, Netherlands","location":{"lat":52.3679843,"lng":4.9035614}},{"name":"Barcelona","value":4,"formatted_address":"Barcelona, Spain","location":{"lat":41.3850639,"lng":2.1734035}},{"name":"Adelaide ","value":1,"formatted_address":"Adelaide SA, Australia","location":{"lat":-34.9284989,"lng":138.6007456}},{"name":"Bayreuth","value":1,"formatted_address":"Bayreuth, Germany","location":{"lat":49.9456399,"lng":11.5713346}},{"name":"Ashtead","value":1,"formatted_address":"Ashtead, UK","location":{"lat":51.31068399999999,"lng":-0.296968}},{"name":"Athens","value":2,"formatted_address":"Athens, Greece","location":{"lat":37.9838096,"lng":23.7275388}},{"name":"Alta","value":1,"formatted_address":"10010 Little Cottonwood Canyon Rd, Alta, UT 84092, USA","location":{"lat":40.5882661,"lng":-111.6358047}},{"name":"Athens ","value":1,"formatted_address":"Athens, Greece","location":{"lat":37.9838096,"lng":23.7275388}},{"name":"Batavia","value":1,"formatted_address":"Batavia, IL, USA","location":{"lat":41.8500284,"lng":-88.3125738}},{"name":"Bangkok","value":1,"formatted_address":"Bangkok, Thailand","location":{"lat":13.7563309,"lng":100.5017651}},{"name":"Baden","value":1,"formatted_address":"2500 Baden bei Wien, Austria","location":{"lat":48.00214,"lng":16.23091}},{"name":"Basel","value":2,"formatted_address":"Basel, Switzerland","location":{"lat":47.5595986,"lng":7.5885761}},{"name":"Aurora","value":1,"formatted_address":"2029, 1704 NW 16th St, Oklahoma City, OK 73106, United States","location":{"lat":35.4858766,"lng":-97.5391684}},{"name":"Auckland ","value":3,"formatted_address":"Auckland, New Zealand","location":{"lat":-36.8484597,"lng":174.7633315}},{"name":"Bangalore ","value":1,"formatted_address":"Bengaluru, Karnataka, India","location":{"lat":12.9715987,"lng":77.5945627}},{"name":"Baltimore","value":7,"formatted_address":"Baltimore, MD, USA","location":{"lat":39.2903848,"lng":-76.6121893}},{"name":"Beer Sheva","value":1,"formatted_address":"Be'er Sheva, Israel","location":{"lat":31.252973,"lng":34.791462}},{"name":"Atlanta","value":4,"formatted_address":"Atlanta, GA, USA","location":{"lat":33.7489954,"lng":-84.3879824}},{"name":"Beijing","value":1,"formatted_address":"Beijing, China","location":{"lat":39.90419989999999,"lng":116.4073963}},{"name":"Belgium","value":1,"formatted_address":"Belgium","location":{"lat":50.503887,"lng":4.469936}},{"name":"Bendigo","value":1,"formatted_address":"Bendigo VIC 3550, Australia","location":{"lat":-36.7570157,"lng":144.2793906}},{"name":"Belgrade","value":1,"formatted_address":"Belgrade, Serbia","location":{"lat":44.786568,"lng":20.4489216}},{"name":"Beirut ","value":1,"formatted_address":"Beirut, Lebanon","location":{"lat":33.8937913,"lng":35.5017767}},{"name":"berkeley","value":1,"formatted_address":"Berkeley, CA, USA","location":{"lat":37.8715926,"lng":-122.272747}},{"name":"Bennett","value":1,"formatted_address":"Bennett, CO 80102, USA","location":{"lat":39.7588736,"lng":-104.4274609}},{"name":"Berkeley","value":1,"formatted_address":"Berkeley, CA, USA","location":{"lat":37.8715926,"lng":-122.272747}},{"name":"Bellingham","value":1,"formatted_address":"Bellingham, WA, USA","location":{"lat":48.7519112,"lng":-122.4786854}},{"name":"Bergen","value":3,"formatted_address":"Bergen, Norway","location":{"lat":60.39126279999999,"lng":5.3220544}},{"name":"Berne","value":1,"formatted_address":"Bern, Switzerland","location":{"lat":46.9479739,"lng":7.4474468}},{"name":"Bexhill","value":1,"formatted_address":"Bexhill, Bexhill-on-Sea, UK","location":{"lat":50.8499062,"lng":0.4662071}},{"name":"bern","value":1,"formatted_address":"Bern, Switzerland","location":{"lat":46.9479739,"lng":7.4474468}},{"name":"Blumenau","value":1,"formatted_address":"Blumenau, State of Santa Catarina, Brazil","location":{"lat":-26.9165792,"lng":-49.0717331}},{"name":"Berlin","value":59,"formatted_address":"Berlin, Germany","location":{"lat":52.52000659999999,"lng":13.404954}},{"name":"Boise","value":1,"formatted_address":"Boise, ID, USA","location":{"lat":43.6150186,"lng":-116.2023137}},{"name":"Birmingham (UK)","value":3,"formatted_address":"Birmingham, UK","location":{"lat":52.48624299999999,"lng":-1.890401}},{"name":"Birmingham (USA)","value":1,"formatted_address":"Birmingham, AL, USA","location":{"lat":33.5185892,"lng":-86.8103567}},{"name":"Bologna","value":1,"formatted_address":"Bologna, Metropolitan City of Bologna, Italy","location":{"lat":44.494887,"lng":11.3426162}},{"name":"Bonn","value":7,"formatted_address":"Bonn, Germany","location":{"lat":50.73743,"lng":7.0982068}},{"name":"Bloomington","value":2,"formatted_address":"Bloomington, IN, USA","location":{"lat":39.165325,"lng":-86.52638569999999}},{"name":"Boston","value":1,"formatted_address":"Boston, MA, USA","location":{"lat":42.3600825,"lng":-71.0588801}},{"name":"Bern","value":4,"formatted_address":"Bern, Switzerland","location":{"lat":46.9479739,"lng":7.4474468}},{"name":"Braunschweig","value":2,"formatted_address":"Brunswick, Germany","location":{"lat":52.2688736,"lng":10.5267696}},{"name":"Bra","value":1,"formatted_address":"3948 S Hudson Ave, Tulsa, OK 74135, USA","location":{"lat":36.1059007,"lng":-95.9136556}},{"name":"Boston / Cambridge (USA)","value":67,"formatted_address":"Cambridge, MA, USA","location":{"lat":42.3736158,"lng":-71.10973349999999}},{"name":"Boulder","value":5,"formatted_address":"Boulder, CO, USA","location":{"lat":40.0149856,"lng":-105.2705456}},{"name":"Braga","value":1,"formatted_address":"Braga, Portugal","location":{"lat":41.5454486,"lng":-8.426506999999999}},{"name":"Brasilia","value":1,"formatted_address":"Brasilia - Federal District, Brazil","location":{"lat":-15.826691,"lng":-47.92182039999999}},{"name":"Bridgetown","value":1,"formatted_address":"Bridgetown, Barbados","location":{"lat":13.0968511,"lng":-59.61448189999999}},{"name":"Bratislava","value":3,"formatted_address":"Bratislava, Slovakia","location":{"lat":48.1485965,"lng":17.1077478}},{"name":"Brunswick","value":1,"formatted_address":"647 Pawtucket Blvd, Lowell, MA 01854, USA","location":{"lat":42.6412895,"lng":-71.3572406}},{"name":"Brno","value":3,"formatted_address":"Brno, Czechia","location":{"lat":49.1950602,"lng":16.6068371}},{"name":"Brasov","value":1,"formatted_address":"Brașov, Romania","location":{"lat":45.6579755,"lng":25.6011977}},{"name":"Bristol","value":7,"formatted_address":"Bristol, UK","location":{"lat":51.454513,"lng":-2.58791}},{"name":"Brisbane","value":18,"formatted_address":"Brisbane QLD, Australia","location":{"lat":-27.4697707,"lng":153.0251235}},{"name":"Budapest ","value":1,"formatted_address":"Budapest, Hungary","location":{"lat":47.497912,"lng":19.040235}},{"name":"Brussels ","value":1,"formatted_address":"Brussels, Belgium","location":{"lat":50.8503463,"lng":4.3517211}},{"name":"Brussels","value":9,"formatted_address":"Brussels, Belgium","location":{"lat":50.8503463,"lng":4.3517211}},{"name":"Budapest","value":1,"formatted_address":"Budapest, Hungary","location":{"lat":47.497912,"lng":19.040235}},{"name":"Buffalo","value":2,"formatted_address":"Buffalo, NY, USA","location":{"lat":42.88644679999999,"lng":-78.8783689}},{"name":"Bury St Edmunds ","value":1,"formatted_address":"Bury St Edmunds, Bury Saint Edmunds, UK","location":{"lat":52.2429228,"lng":0.7104931999999999}},{"name":"Cadillac","value":1,"formatted_address":"3939 S Memorial Dr, Tulsa, OK 74145, USA","location":{"lat":36.1058481,"lng":-95.8857214}},{"name":"Burlington","value":2,"formatted_address":"1887 S Yale Ave, Tulsa, OK 74112, USA","location":{"lat":36.135688,"lng":-95.91991159999999}},{"name":"Buenos Aires","value":1,"formatted_address":"Buenos Aires, Argentina","location":{"lat":-34.6036844,"lng":-58.3815591}},{"name":"Calgary","value":2,"formatted_address":"Calgary, AB, Canada","location":{"lat":51.0486151,"lng":-114.0708459}},{"name":"Campinas","value":1,"formatted_address":"Campinas - State of São Paulo, Brazil","location":{"lat":-22.9329252,"lng":-47.073845}},{"name":"Canary Islands","value":1,"formatted_address":"Canary Islands, Spain","location":{"lat":28.2915637,"lng":-16.6291304}},{"name":"Brighton","value":7,"formatted_address":"8302 S Brighton Loop Rd, Brighton, UT 84121, USA","location":{"lat":40.598019,"lng":-111.583187}},{"name":"Cambridge (UK)","value":35,"formatted_address":"Cambridge, UK","location":{"lat":52.205337,"lng":0.121817}},{"name":"Canberra","value":23,"formatted_address":"Canberra ACT 2601, Australia","location":{"lat":-35.2809368,"lng":149.1300092}},{"name":"Canterbury","value":3,"formatted_address":"1100 Canterbury Rd S, Shakopee, MN 55379, USA","location":{"lat":44.7912253,"lng":-93.4839865}},{"name":"Cape Town","value":3,"formatted_address":"Cape Town, South Africa","location":{"lat":-33.9248685,"lng":18.4240553}},{"name":"Cape Town ","value":1,"formatted_address":"Cape Town, South Africa","location":{"lat":-33.9248685,"lng":18.4240553}},{"name":"Castillejos","value":1,"formatted_address":"Castillejos, Zambales, Philippines","location":{"lat":14.9438211,"lng":120.1935663}},{"name":"Chapel Hill","value":2,"formatted_address":"Chapel Hill, NC, USA","location":{"lat":35.9131996,"lng":-79.0558445}},{"name":"Cedar Rapids","value":1,"formatted_address":"Cedar Rapids, IA, USA","location":{"lat":41.9778795,"lng":-91.6656232}},{"name":"Central Coast","value":1,"formatted_address":"Central Coast, NSW, Australia","location":{"lat":-33.3208415,"lng":151.2335592}},{"name":"Charlottesville","value":2,"formatted_address":"Charlottesville, VA, USA","location":{"lat":38.0293059,"lng":-78.47667810000002}},{"name":"Charlotte","value":1,"formatted_address":"Charlotte, NC, USA","location":{"lat":35.2270869,"lng":-80.8431267}},{"name":"Chattanooga","value":1,"formatted_address":"Chattanooga, TN, USA","location":{"lat":35.0456297,"lng":-85.3096801}},{"name":"Chicago","value":30,"formatted_address":"Chicago, IL, USA","location":{"lat":41.8781136,"lng":-87.6297982}},{"name":"Chippenham","value":2,"formatted_address":"Chippenham, UK","location":{"lat":51.461514,"lng":-2.1195157}},{"name":"Chehalis","value":1,"formatted_address":"Chehalis, WA 98532, USA","location":{"lat":46.6652443,"lng":-122.9698002}},{"name":"Christchurch ","value":1,"formatted_address":"Christchurch, New Zealand","location":{"lat":-43.5320544,"lng":172.6362254}},{"name":"Chennai & Mangalore ","value":1,"formatted_address":"Mangalore Central, Attavar, Mangaluru, Karnataka 575001, India","location":{"lat":12.8633482,"lng":74.8432576}},{"name":"Christchurch","value":6,"formatted_address":"Christchurch, New Zealand","location":{"lat":-43.5320544,"lng":172.6362254}},{"name":"Cincinnatti","value":1,"formatted_address":"Cincinnati, OH, USA","location":{"lat":39.1031182,"lng":-84.5120196}},{"name":"Chocowinity","value":1,"formatted_address":"Chocowinity, NC 27817, USA","location":{"lat":35.5126631,"lng":-77.1005091}},{"name":"Coeur D'Alene","value":1,"formatted_address":"Coeur d'Alene, ID, USA","location":{"lat":47.6734632,"lng":-116.7812225}},{"name":"Cleveland","value":3,"formatted_address":"Cleveland, OH, USA","location":{"lat":41.49932,"lng":-81.6943605}},{"name":"Colchester","value":1,"formatted_address":"Colchester, UK","location":{"lat":51.895927,"lng":0.8918740000000001}},{"name":"College Park","value":1,"formatted_address":"College Park, MD, USA","location":{"lat":38.9896967,"lng":-76.93776}},{"name":"Columbia (US)","value":1,"formatted_address":"Audubon Village, 2480 US-41, Henderson, KY 42420, USA","location":{"lat":37.871458,"lng":-87.56785599999999}},{"name":"College Station/Houston","value":1,"formatted_address":"1450 Old Arrington Rd, College Station, TX 77845, USA","location":{"lat":30.5536535,"lng":-96.2597006}},{"name":"Cologne","value":8,"formatted_address":"Cologne, Germany","location":{"lat":50.937531,"lng":6.9602786}},{"name":"Copenhagen","value":12,"formatted_address":"Copenhagen, Denmark","location":{"lat":55.6760968,"lng":12.5683372}},{"name":"Colorado Springs","value":1,"formatted_address":"Colorado Springs, CO, USA","location":{"lat":38.8338816,"lng":-104.8213634}},{"name":"Corvallis","value":2,"formatted_address":"Corvallis, OR, USA","location":{"lat":44.5645659,"lng":-123.2620435}},{"name":"Columbus","value":2,"formatted_address":"Columbus, OH, USA","location":{"lat":39.9611755,"lng":-82.99879419999999}},{"name":"Concord","value":1,"formatted_address":"Concord, CA, USA","location":{"lat":37.9779776,"lng":-122.0310733}},{"name":"Copenhagen ","value":1,"formatted_address":"Copenhagen, Denmark","location":{"lat":55.6760968,"lng":12.5683372}},{"name":"Corby","value":1,"formatted_address":"Corby, UK","location":{"lat":52.49229829999999,"lng":-0.6842332999999999}},{"name":"Dallas","value":7,"formatted_address":"Dallas, TX, USA","location":{"lat":32.7766642,"lng":-96.79698789999999}},{"name":"Coventry","value":3,"formatted_address":"Coventry, UK","location":{"lat":52.406822,"lng":-1.519693}},{"name":"Cowes","value":1,"formatted_address":"Cowes, UK","location":{"lat":50.76278500000001,"lng":-1.300533}},{"name":"Culemborg","value":1,"formatted_address":"Culemborg, Netherlands","location":{"lat":51.9561076,"lng":5.240044800000001}},{"name":"Detroit","value":1,"formatted_address":"Detroit, MI, USA","location":{"lat":42.331427,"lng":-83.0457538}},{"name":"Dayton","value":2,"formatted_address":"Dayton, OH, USA","location":{"lat":39.7589478,"lng":-84.1916069}},{"name":"Delhi","value":2,"formatted_address":"Delhi, India","location":{"lat":28.7040592,"lng":77.10249019999999}},{"name":"Dalton-in-Furness","value":1,"formatted_address":"Dalton-in-Furness, UK","location":{"lat":54.156887,"lng":-3.1782}},{"name":"Dortmund","value":3,"formatted_address":"Dortmund, Germany","location":{"lat":51.5135872,"lng":7.465298100000001}},{"name":"Doha","value":1,"formatted_address":"Doha, Qatar","location":{"lat":25.2854473,"lng":51.53103979999999}},{"name":"Delft","value":2,"formatted_address":"Delft, Netherlands","location":{"lat":52.01157689999999,"lng":4.3570677}},{"name":"Denver","value":8,"formatted_address":"Denver, CO, USA","location":{"lat":39.7392358,"lng":-104.990251}},{"name":"Dubai","value":2,"formatted_address":"Dubai - United Arab Emirates","location":{"lat":25.2048493,"lng":55.2707828}},{"name":"Detroit ","value":1,"formatted_address":"Detroit, MI, USA","location":{"lat":42.331427,"lng":-83.0457538}},{"name":"Douglas","value":1,"formatted_address":"Independence, KS 67301, USA","location":{"lat":37.09024,"lng":-95.712891}},{"name":"Dresden","value":2,"formatted_address":"Dresden, Germany","location":{"lat":51.0504088,"lng":13.7372621}},{"name":"Dakar","value":1,"formatted_address":"Dakar, Senegal","location":{"lat":14.716677,"lng":-17.4676861}},{"name":"Dubbo","value":1,"formatted_address":"Dubbo NSW 2830, Australia","location":{"lat":-32.2315018,"lng":148.6329645}},{"name":"Dublin","value":9,"formatted_address":"Dublin, Ireland","location":{"lat":53.3498053,"lng":-6.2603097}},{"name":"Dublin ","value":1,"formatted_address":"Dublin, Ireland","location":{"lat":53.3498053,"lng":-6.2603097}},{"name":"Dundee","value":2,"formatted_address":"Dundee, UK","location":{"lat":56.462018,"lng":-2.970721}},{"name":"Dunedin","value":4,"formatted_address":"Dunedin, FL, USA","location":{"lat":28.0197404,"lng":-82.7717684}},{"name":"Durham","value":2,"formatted_address":"Durham, NC, USA","location":{"lat":35.9940329,"lng":-78.898619}},{"name":"Durham ","value":1,"formatted_address":"Durham, NC, USA","location":{"lat":35.9940329,"lng":-78.898619}},{"name":"Durham (US)","value":8,"formatted_address":"Durham, NC, USA","location":{"lat":35.9940329,"lng":-78.898619}},{"name":"Düsseldorf ","value":1,"formatted_address":"Düsseldorf, Germany","location":{"lat":51.2277411,"lng":6.7734556}},{"name":"Düsseldorf","value":3,"formatted_address":"Düsseldorf, Germany","location":{"lat":51.2277411,"lng":6.7734556}},{"name":"East Lansing","value":1,"formatted_address":"East Lansing, MI, USA","location":{"lat":42.7369792,"lng":-84.48386540000001}},{"name":"Edmonton","value":3,"formatted_address":"Edmonton, AB, Canada","location":{"lat":53.544389,"lng":-113.4909267}},{"name":"Enschede","value":2,"formatted_address":"Enschede, Netherlands","location":{"lat":52.2215372,"lng":6.8936619}},{"name":"Erlangen","value":2,"formatted_address":"Erlangen, Germany","location":{"lat":49.5896744,"lng":11.0119611}},{"name":"Exeter","value":3,"formatted_address":"Exeter, UK","location":{"lat":50.718412,"lng":-3.533899}},{"name":"Edinburgh","value":9,"formatted_address":"Edinburgh, UK","location":{"lat":55.953252,"lng":-3.188267}},{"name":"Francfort","value":1,"formatted_address":"Frankfurt, Germany","location":{"lat":50.1109221,"lng":8.6821267}},{"name":"Farmingdale ","value":1,"formatted_address":"Farmingdale, NY 11735, USA","location":{"lat":40.7325997,"lng":-73.4454009}},{"name":"Fair Lawn","value":1,"formatted_address":"Fair Lawn, NJ 07410, USA","location":{"lat":40.9403762,"lng":-74.1318096}},{"name":"Freetown","value":2,"formatted_address":"Freetown, Sierra Leone","location":{"lat":8.4656765,"lng":-13.2317225}},{"name":"Falkenberg","value":1,"formatted_address":"Falkenberg, Sweden","location":{"lat":56.90273329999999,"lng":12.4888013}},{"name":"Freiburg","value":4,"formatted_address":"Freiburg, Germany","location":{"lat":47.9990077,"lng":7.842104299999999}},{"name":"Gaziantep","value":1,"formatted_address":"Gaziantep, Turkey","location":{"lat":37.065953,"lng":37.37811}},{"name":"Fredericton","value":1,"formatted_address":"Fredericton, NB, Canada","location":{"lat":45.9635895,"lng":-66.6431151}},{"name":"Frankfurt","value":5,"formatted_address":"Frankfurt, Germany","location":{"lat":50.1109221,"lng":8.6821267}},{"name":"Geneva","value":7,"formatted_address":"Geneva, Switzerland","location":{"lat":46.2043907,"lng":6.1431577}},{"name":"Fort Saint John","value":1,"formatted_address":"Fort St John, BC, Canada","location":{"lat":56.252423,"lng":-120.846409}},{"name":"Fresno, California","value":1,"formatted_address":"Fresno, CA, USA","location":{"lat":36.7377981,"lng":-119.7871247}},{"name":"Glasgow","value":8,"formatted_address":"Glasgow, UK","location":{"lat":55.864237,"lng":-4.251806}},{"name":"Germantown","value":1,"formatted_address":"Germantown, TN, USA","location":{"lat":35.0867577,"lng":-89.8100858}},{"name":"Gibraltar","value":1,"formatted_address":"Gibraltar","location":{"lat":36.140751,"lng":-5.353585}},{"name":"Geelong","value":1,"formatted_address":"Geelong VIC 3220, Australia","location":{"lat":-38.1499181,"lng":144.3617186}},{"name":"Ghent","value":1,"formatted_address":"Ghent, Belgium","location":{"lat":51.0543422,"lng":3.7174243}},{"name":"Gothenburg","value":1,"formatted_address":"Gothenburg, Sweden","location":{"lat":57.70887,"lng":11.97456}},{"name":"Gent","value":1,"formatted_address":"3865 Gallagher Dr, Edina, MN 55435, USA","location":{"lat":44.8704543,"lng":-93.3283575}},{"name":"Golbey","value":1,"formatted_address":"Golbey, France","location":{"lat":48.197368,"lng":6.440424999999999}},{"name":"Gothenburg ","value":1,"formatted_address":"Gothenburg, Sweden","location":{"lat":57.70887,"lng":11.97456}},{"name":"Glen Rock","value":1,"formatted_address":"Glen Rock, NJ 07452, USA","location":{"lat":40.9628758,"lng":-74.1329207}},{"name":"Good","value":1,"formatted_address":"4302 East, US-160, Independence, KS 67301, United States","location":{"lat":37.223718,"lng":-95.673952}},{"name":"Golden","value":1,"formatted_address":"Golden, CO, USA","location":{"lat":39.755543,"lng":-105.2210997}},{"name":"Graz","value":2,"formatted_address":"Graz, Austria","location":{"lat":47.070714,"lng":15.439504}},{"name":"Grand Rapids","value":1,"formatted_address":"Grand Rapids, MI, USA","location":{"lat":42.9633599,"lng":-85.6680863}},{"name":"Grantown on Spey","value":1,"formatted_address":"Grantown-on-Spey PH26, UK","location":{"lat":57.33041,"lng":-3.609628}},{"name":"Greenbelt","value":1,"formatted_address":"Greenbelt, MD, USA","location":{"lat":39.0045544,"lng":-76.87552819999999}},{"name":"Grantsville","value":1,"formatted_address":"Grantsville, UT 84029, USA","location":{"lat":40.5999425,"lng":-112.4643988}},{"name":"Greenville","value":1,"formatted_address":"Greenville, SC, USA","location":{"lat":34.85261759999999,"lng":-82.3940104}},{"name":"Grinnell","value":2,"formatted_address":"Grinnell, IA 50112, USA","location":{"lat":41.74340919999999,"lng":-92.7232456}},{"name":"Groningen","value":4,"formatted_address":"Groningen, Netherlands","location":{"lat":53.2193835,"lng":6.5665017}},{"name":"Flemington","value":1,"formatted_address":"Flemington, NJ 08822, USA","location":{"lat":40.5123258,"lng":-74.85933179999999}},{"name":"Guildford","value":1,"formatted_address":"Guildford, UK","location":{"lat":51.23622,"lng":-0.570409}},{"name":"Hadera","value":1,"formatted_address":"Hadera, Israel","location":{"lat":32.4340458,"lng":34.9196518}},{"name":"Hannover","value":1,"formatted_address":"Hanover, Germany","location":{"lat":52.3758916,"lng":9.732010400000002}},{"name":"Hasselt ","value":1,"formatted_address":"Hasselt, Belgium","location":{"lat":50.93069,"lng":5.332479999999999}},{"name":"Harrisburg","value":2,"formatted_address":"Harrisburg, PA, USA","location":{"lat":40.2731911,"lng":-76.8867008}},{"name":"Hamburg","value":9,"formatted_address":"Hamburg, Germany","location":{"lat":53.5510846,"lng":9.9936819}},{"name":"Halifax","value":1,"formatted_address":"3230 E 15th St, Tulsa, OK 74104, USA","location":{"lat":36.1403349,"lng":-95.94123309999999}},{"name":"Harrogate","value":1,"formatted_address":"Harrogate, UK","location":{"lat":53.99212,"lng":-1.541812}},{"name":"Hawaii","value":1,"formatted_address":"Hawaii, USA","location":{"lat":19.8967662,"lng":-155.5827818}},{"name":"Haverford","value":1,"formatted_address":"Haverford, PA, USA","location":{"lat":40.0022406,"lng":-75.3208107}},{"name":"Hanover","value":1,"formatted_address":"204 W North St, Hanover, KS 66945, USA","location":{"lat":39.89295680000001,"lng":-96.87842239999999}},{"name":"Helsinki","value":6,"formatted_address":"Helsinki, Finland","location":{"lat":60.16985569999999,"lng":24.9383791}},{"name":"Holiday","value":1,"formatted_address":"1314 W 7th St, Coffeyville, KS 67337, USA","location":{"lat":37.0375471,"lng":-95.6372785}},{"name":"Heidelberg","value":2,"formatted_address":"Heidelberg, Germany","location":{"lat":49.3987524,"lng":8.6724335}},{"name":"Hennef","value":1,"formatted_address":"53773 Hennef, Germany","location":{"lat":50.760274,"lng":7.3465066}},{"name":"Hong Kong","value":6,"formatted_address":"Hong Kong","location":{"lat":22.396428,"lng":114.109497}},{"name":"Hengelo","value":1,"formatted_address":"Hengelo, Netherlands","location":{"lat":52.2574121,"lng":6.7927725}},{"name":"Holland (US)","value":1,"formatted_address":"Holland, MI 49423, USA","location":{"lat":42.7875235,"lng":-86.1089301}},{"name":"Highland Park","value":1,"formatted_address":"Highland Park, IL 60035, USA","location":{"lat":42.1816918,"lng":-87.8003437}},{"name":"Honiara","value":1,"formatted_address":"Honiara, Solomon Islands","location":{"lat":-9.4456381,"lng":159.9728999}},{"name":"Hurlburt Field","value":1,"formatted_address":"Hurlburt Field, FL, USA","location":{"lat":30.4236556,"lng":-86.69497109999999}},{"name":"Inverness","value":1,"formatted_address":"Inverness, UK","location":{"lat":57.477773,"lng":-4.224721}},{"name":"Jerusalem","value":3,"formatted_address":"Jerusalem, Israel","location":{"lat":31.768319,"lng":35.21371}},{"name":"Indian Hills","value":1,"formatted_address":"525 Grandview Ave, Ottumwa, IA 52501, USA","location":{"lat":41.044962,"lng":-92.394464}},{"name":"Istanbul","value":1,"formatted_address":"Istanbul, Turkey","location":{"lat":41.0082376,"lng":28.9783589}},{"name":"Jeonju","value":1,"formatted_address":"Jeonju-si, Jeollabuk-do, South Korea","location":{"lat":35.8242238,"lng":127.1479532}},{"name":"Hyderabad","value":1,"formatted_address":"Hyderabad, Telangana, India","location":{"lat":17.385044,"lng":78.486671}},{"name":"Houston","value":8,"formatted_address":"Houston, TX, USA","location":{"lat":29.7604267,"lng":-95.3698028}},{"name":"Kansas City","value":2,"formatted_address":"Kansas City, MO, USA","location":{"lat":39.0997265,"lng":-94.5785667}},{"name":"Islamabad","value":1,"formatted_address":"Islamabad, Islamabad Capital Territory, Pakistan","location":{"lat":33.6844202,"lng":73.04788479999999}},{"name":"Kawaguchi-shi","value":1,"formatted_address":"Kawaguchi, Saitama Prefecture, Japan","location":{"lat":35.8077379,"lng":139.7241712}},{"name":"Hradec Kralove","value":1,"formatted_address":"Hradec Kralove, Czechia","location":{"lat":50.2103605,"lng":15.825211}},{"name":"Huonville","value":1,"formatted_address":"Huonville TAS 7109, Australia","location":{"lat":-43.0295194,"lng":147.0580307}},{"name":"Jefferson","value":1,"formatted_address":"Jefferson, Fawn Creek, KS 67301, USA","location":{"lat":37.1095843,"lng":-95.76257129999999}},{"name":"Kigoma ","value":1,"formatted_address":"Kigoma, Tanzania","location":{"lat":-4.8824092,"lng":29.6615055}},{"name":"Karlsruhe","value":1,"formatted_address":"Karlsruhe, Germany","location":{"lat":49.0068901,"lng":8.4036527}},{"name":"Huntly","value":1,"formatted_address":"Huntly AB54, UK","location":{"lat":57.445936,"lng":-2.7878058}},{"name":"Kampala","value":1,"formatted_address":"Kampala, Uganda","location":{"lat":0.3475964,"lng":32.5825197}},{"name":"Indianapolis","value":4,"formatted_address":"Indianapolis, IN, USA","location":{"lat":39.768403,"lng":-86.158068}},{"name":"Knoxville","value":1,"formatted_address":"Knoxville, TN, USA","location":{"lat":35.9606384,"lng":-83.9207392}},{"name":"Kenilworth","value":1,"formatted_address":"Kenilworth, NJ, USA","location":{"lat":40.6764911,"lng":-74.2907032}},{"name":"Huntsville","value":1,"formatted_address":"Huntsville, AL, USA","location":{"lat":34.7303688,"lng":-86.5861037}},{"name":"Kolkata","value":1,"formatted_address":"Kolkata, West Bengal, India","location":{"lat":22.572646,"lng":88.36389500000001}},{"name":"Kristianstad","value":1,"formatted_address":"Kristianstad, Sweden","location":{"lat":56.0293936,"lng":14.1566779}},{"name":"Kingsvale","value":1,"formatted_address":"Kingsvale NSW 2587, Australia","location":{"lat":-34.4119888,"lng":148.3132336}},{"name":"Kraków","value":6,"formatted_address":"Kraków, Poland","location":{"lat":50.06465009999999,"lng":19.9449799}},{"name":"Johannesburg","value":2,"formatted_address":"Johannesburg, South Africa","location":{"lat":-26.2041028,"lng":28.0473051}},{"name":"Kuala Lumpur","value":1,"formatted_address":"Kuala Lumpur, Federal Territory of Kuala Lumpur, Malaysia","location":{"lat":3.139003,"lng":101.686855}},{"name":"Laguna Beach","value":1,"formatted_address":"Laguna Beach, CA, USA","location":{"lat":33.5427189,"lng":-117.7853568}},{"name":"Lake Charles","value":1,"formatted_address":"Lake Charles, LA, USA","location":{"lat":30.2265949,"lng":-93.2173758}},{"name":"Ithaca","value":3,"formatted_address":"Ithaca, NY, USA","location":{"lat":42.4439614,"lng":-76.5018807}},{"name":"Lake Tahoe","value":1,"formatted_address":"Lake Tahoe, United States","location":{"lat":39.0968493,"lng":-120.0323507}},{"name":"Las Cruces","value":1,"formatted_address":"Las Cruces, NM, USA","location":{"lat":32.3199396,"lng":-106.7636538}},{"name":"Lansing","value":2,"formatted_address":"Lansing, MI, USA","location":{"lat":42.732535,"lng":-84.5555347}},{"name":"Lausanne","value":4,"formatted_address":"Lausanne, Switzerland","location":{"lat":46.5196535,"lng":6.6322734}},{"name":"Leamington Spa","value":2,"formatted_address":"Royal Leamington Spa, UK","location":{"lat":52.2851905,"lng":-1.5200789}},{"name":"Leipz ","value":1,"formatted_address":"Leipzig, Germany","location":{"lat":51.3396955,"lng":12.3730747}},{"name":"Leicester","value":3,"formatted_address":"Leicester, UK","location":{"lat":52.6368778,"lng":-1.1397592}},{"name":"Leeds","value":4,"formatted_address":"Leeds, UK","location":{"lat":53.8007554,"lng":-1.5490774}},{"name":"Leuven","value":1,"formatted_address":"Leuven, Belgium","location":{"lat":50.8798438,"lng":4.7005176}},{"name":"Leipzig","value":1,"formatted_address":"Leipzig, Germany","location":{"lat":51.3396955,"lng":12.3730747}},{"name":"Lexington","value":1,"formatted_address":"Lexington, KY, USA","location":{"lat":38.0405837,"lng":-84.5037164}},{"name":"Leiden","value":1,"formatted_address":"Leiden, Netherlands","location":{"lat":52.1601144,"lng":4.4970097}},{"name":"Lincolnton","value":1,"formatted_address":"Lincolnton, NC 28092, USA","location":{"lat":35.473745,"lng":-81.2545251}},{"name":"Lisboa","value":1,"formatted_address":"Lisbon, Portugal","location":{"lat":38.7222524,"lng":-9.1393366}},{"name":"Liverpool","value":1,"formatted_address":"Liverpool, UK","location":{"lat":53.4083714,"lng":-2.9915726}},{"name":"London","value":178,"formatted_address":"London, UK","location":{"lat":51.5073509,"lng":-0.1277583}},{"name":"Lisbon","value":2,"formatted_address":"Lisbon, Portugal","location":{"lat":38.7222524,"lng":-9.1393366}},{"name":"Longview","value":1,"formatted_address":"Longview, TX, USA","location":{"lat":32.5007037,"lng":-94.74048909999999}},{"name":"Los Angeles","value":31,"formatted_address":"Los Angeles, CA, USA","location":{"lat":34.0522342,"lng":-118.2436849}},{"name":"Lüneburg","value":1,"formatted_address":"Lüneburg, Germany","location":{"lat":53.2464214,"lng":10.4115179}},{"name":"London (ON)","value":2,"formatted_address":"London, ON, Canada","location":{"lat":42.9849233,"lng":-81.2452768}},{"name":"Llanberis","value":1,"formatted_address":"Llanberis, Caernarfon LL55, UK","location":{"lat":53.1180329,"lng":-4.127549}},{"name":"Łódź","value":1,"formatted_address":"Łódź, Poland","location":{"lat":51.7592485,"lng":19.4559833}},{"name":"Luanda","value":2,"formatted_address":"Luanda, Angola","location":{"lat":-8.8146556,"lng":13.2301756}},{"name":"Lund","value":1,"formatted_address":"Lund, Sweden","location":{"lat":55.7046601,"lng":13.1910073}},{"name":"Lugano","value":1,"formatted_address":"Lugano, Switzerland","location":{"lat":46.0036778,"lng":8.951051999999999}},{"name":"Lynchburg","value":1,"formatted_address":"Lynchburg, VA, USA","location":{"lat":37.4137536,"lng":-79.14224639999999}},{"name":"Lusaka","value":2,"formatted_address":"Lusaka, Zambia","location":{"lat":-15.3875259,"lng":28.3228165}},{"name":"Lubbock","value":1,"formatted_address":"Lubbock, TX, USA","location":{"lat":33.5778631,"lng":-101.8551665}},{"name":"Lincoln","value":4,"formatted_address":"Lincoln, AR 72744, USA","location":{"lat":35.949526,"lng":-94.4235482}},{"name":"Maarssen","value":1,"formatted_address":"Maarssen, Netherlands","location":{"lat":52.1319071,"lng":5.017102}},{"name":"Madison","value":16,"formatted_address":"Madison, WI, USA","location":{"lat":43.0730517,"lng":-89.4012302}},{"name":"Lyon","value":1,"formatted_address":"Lyon, France","location":{"lat":45.764043,"lng":4.835659}},{"name":"Makeni","value":1,"formatted_address":"Makeni, Sierra Leone","location":{"lat":8.871974699999999,"lng":-12.0375565}},{"name":"Madrid","value":4,"formatted_address":"Madrid, Spain","location":{"lat":40.4167754,"lng":-3.7037902}},{"name":"Magdeburg","value":3,"formatted_address":"Magdeburg, Germany","location":{"lat":52.1205333,"lng":11.6276237}},{"name":"Manchester (US)","value":1,"formatted_address":"Manchester, NH, USA","location":{"lat":42.9956397,"lng":-71.4547891}},{"name":"Marburg","value":1,"formatted_address":"Marburg, Germany","location":{"lat":50.8021728,"lng":8.7667933}},{"name":"Manila","value":3,"formatted_address":"Manila, Metro Manila, Philippines","location":{"lat":14.5995124,"lng":120.9842195}},{"name":"Manchester","value":3,"formatted_address":"Manchester, UK","location":{"lat":53.4807593,"lng":-2.2426305}},{"name":"Malmö","value":2,"formatted_address":"Malmö, Sweden","location":{"lat":55.604981,"lng":13.003822}},{"name":"Marietta","value":1,"formatted_address":"Marietta, GA, USA","location":{"lat":33.95260200000001,"lng":-84.5499327}},{"name":"Manchester ","value":3,"formatted_address":"Manchester, UK","location":{"lat":53.4807593,"lng":-2.2426305}},{"name":"Milwaukee","value":1,"formatted_address":"Milwaukee, WI, USA","location":{"lat":43.0389025,"lng":-87.9064736}},{"name":"Melbourne (US)","value":1,"formatted_address":"Melbourne, FL, USA","location":{"lat":28.0836269,"lng":-80.60810889999999}},{"name":"Milton Keynes","value":1,"formatted_address":"Milton Keynes, UK","location":{"lat":52.0406224,"lng":-0.7594171}},{"name":"Miami","value":1,"formatted_address":"Miami, FL, USA","location":{"lat":25.7616798,"lng":-80.1917902}},{"name":"Minneapolis","value":8,"formatted_address":"Minneapolis, MN, USA","location":{"lat":44.977753,"lng":-93.2650108}},{"name":"Milan","value":2,"formatted_address":"Milan, Metropolitan City of Milan, Italy","location":{"lat":45.4642035,"lng":9.189982}},{"name":"Melbourne","value":59,"formatted_address":"Melbourne VIC, Australia","location":{"lat":-37.8136276,"lng":144.9630576}},{"name":"Monrovia","value":1,"formatted_address":"Monrovia, CA, USA","location":{"lat":34.1442616,"lng":-118.0019482}},{"name":"Minsk","value":1,"formatted_address":"Minsk, Belarus","location":{"lat":53.90453979999999,"lng":27.5615244}},{"name":"Monterrey","value":2,"formatted_address":"Monterrey, Nuevo Leon, Mexico","location":{"lat":25.6866142,"lng":-100.3161126}},{"name":"Monmouth","value":1,"formatted_address":"400 Cedar Ave, West Long Branch, NJ 07764, USA","location":{"lat":40.2804557,"lng":-74.0058114}},{"name":"Montreal","value":12,"formatted_address":"Montreal, QC, Canada","location":{"lat":45.5016889,"lng":-73.567256}},{"name":"Montevideo","value":1,"formatted_address":"Montevideo, Montevideo Department, Uruguay","location":{"lat":-34.9011127,"lng":-56.16453139999999}},{"name":"Moscow","value":7,"formatted_address":"Moscow, Russia","location":{"lat":55.755826,"lng":37.6172999}},{"name":"Mount Vernon","value":1,"formatted_address":"3200 Mount Vernon Hwy, Mt Vernon, VA 22121, USA","location":{"lat":38.707982,"lng":-77.0861753}},{"name":"Mumbai","value":2,"formatted_address":"Mumbai, Maharashtra, India","location":{"lat":19.0759837,"lng":72.8776559}},{"name":"Munich","value":13,"formatted_address":"Munich, Germany","location":{"lat":48.1351253,"lng":11.5819805}},{"name":"Münster","value":2,"formatted_address":"Münster, Germany","location":{"lat":51.9606649,"lng":7.6261347}},{"name":"Nashville","value":2,"formatted_address":"Nashville, TN, USA","location":{"lat":36.1626638,"lng":-86.7816016}},{"name":"Nederland ","value":1,"formatted_address":"Nederland, CO 80466, USA","location":{"lat":39.9613759,"lng":-105.5108312}},{"name":"New London","value":2,"formatted_address":"New London, CT, USA","location":{"lat":41.3556539,"lng":-72.0995209}},{"name":"Nairobi","value":1,"formatted_address":"Nairobi, Kenya","location":{"lat":-1.2920659,"lng":36.8219462}},{"name":"New Orleans","value":1,"formatted_address":"New Orleans, LA, USA","location":{"lat":29.95106579999999,"lng":-90.0715323}},{"name":"New York City","value":97,"formatted_address":"New York, NY, USA","location":{"lat":40.7127753,"lng":-74.0059728}},{"name":"New Haven","value":8,"formatted_address":"New Haven, CT, USA","location":{"lat":41.308274,"lng":-72.9278835}},{"name":"Norman","value":1,"formatted_address":"Norman, OK, USA","location":{"lat":35.2225668,"lng":-97.4394777}},{"name":"Newcastle","value":2,"formatted_address":"Newcastle, OK, USA","location":{"lat":35.2472869,"lng":-97.59975999999999}},{"name":"Nottingham ","value":1,"formatted_address":"Nottingham, UK","location":{"lat":52.95478319999999,"lng":-1.1581086}},{"name":"New York State","value":2,"formatted_address":"New York, USA","location":{"lat":43.2994285,"lng":-74.21793260000001}},{"name":"Nottingham","value":1,"formatted_address":"Nottingham, UK","location":{"lat":52.95478319999999,"lng":-1.1581086}},{"name":"Novi Sad ","value":1,"formatted_address":"Novi Sad, Serbia","location":{"lat":45.2671352,"lng":19.8335496}},{"name":"Nijmegen","value":1,"formatted_address":"Nijmegen, Netherlands","location":{"lat":51.8448837,"lng":5.842828099999999}},{"name":"Oahu","value":1,"formatted_address":"O‘ahu, Hawaii, USA","location":{"lat":21.4389123,"lng":-158.0000565}},{"name":"Northampton","value":1,"formatted_address":"Northampton, MA, USA","location":{"lat":42.3250896,"lng":-72.64120129999999}},{"name":"Nyagatare District","value":1,"formatted_address":"Nyagatare, Rwanda","location":{"lat":-1.3782249,"lng":30.4357631}},{"name":"NYC","value":1,"formatted_address":"New York, NY, USA","location":{"lat":40.7127753,"lng":-74.0059728}},{"name":"Nuremberg","value":1,"formatted_address":"Nuremberg, Germany","location":{"lat":49.4521018,"lng":11.0766654}},{"name":"Norwalk","value":1,"formatted_address":"Norwalk, CA, USA","location":{"lat":33.9022367,"lng":-118.081733}},{"name":"Ogre","value":1,"formatted_address":"Ogre, Ogres pilsēta, Latvia","location":{"lat":56.8147355,"lng":24.6044555}},{"name":"Oberlin","value":1,"formatted_address":"Oberlin, OH 44074, USA","location":{"lat":41.2939386,"lng":-82.21737859999999}},{"name":"Oakland","value":1,"formatted_address":"Oakland, CA, USA","location":{"lat":37.8043637,"lng":-122.2711137}},{"name":"Olten","value":1,"formatted_address":"Olten, Switzerland","location":{"lat":47.3499624,"lng":7.903703399999999}},{"name":"Oklahoma City","value":2,"formatted_address":"Oklahoma City, OK, USA","location":{"lat":35.4675602,"lng":-97.5164276}},{"name":"Oregon ","value":1,"formatted_address":"Oregon, USA","location":{"lat":43.8041334,"lng":-120.5542012}},{"name":"Osnabrück","value":8,"formatted_address":"Osnabrück, Germany","location":{"lat":52.2799112,"lng":8.0471788}},{"name":"Overland Park","value":1,"formatted_address":"Overland Park, KS, USA","location":{"lat":38.9822282,"lng":-94.6707917}},{"name":"Orlando","value":1,"formatted_address":"Orlando, FL, USA","location":{"lat":28.5383355,"lng":-81.3792365}},{"name":"Palo Alto","value":1,"formatted_address":"Palo Alto, CA, USA","location":{"lat":37.4418834,"lng":-122.1430195}},{"name":"Oxford","value":56,"formatted_address":"Oxford, KS 67119, USA","location":{"lat":37.2741908,"lng":-97.1689296}},{"name":"Olympia","value":2,"formatted_address":"Olympia, WA, USA","location":{"lat":47.0378741,"lng":-122.9006951}},{"name":"Orange County","value":1,"formatted_address":"Orange County, CA, USA","location":{"lat":33.7174708,"lng":-117.8311428}},{"name":"Oslo","value":18,"formatted_address":"Oslo, Norway","location":{"lat":59.9138688,"lng":10.7522454}},{"name":"Ottawa","value":9,"formatted_address":"Ottawa, ON, Canada","location":{"lat":45.4215296,"lng":-75.69719309999999}},{"name":"Oshkosh","value":1,"formatted_address":"Independence, KS 67301, USA","location":{"lat":37.09024,"lng":-95.712891}},{"name":"Oxford ","value":1,"formatted_address":"Oxford, KS 67119, USA","location":{"lat":37.2741908,"lng":-97.1689296}},{"name":"Ottery St Mary ","value":1,"formatted_address":"Ottery St Mary, Ottery Saint Mary EX11, UK","location":{"lat":50.75117820000001,"lng":-3.279352}},{"name":"Olomouc","value":2,"formatted_address":"Olomouc, Czechia","location":{"lat":49.593778,"lng":17.2508787}},{"name":"Paris","value":14,"formatted_address":"Paris, France","location":{"lat":48.856614,"lng":2.3522219}},{"name":"Peekskill","value":1,"formatted_address":"Peekskill, NY, USA","location":{"lat":41.2900939,"lng":-73.9204158}},{"name":"Paramus","value":1,"formatted_address":"Paramus, NJ 07652, USA","location":{"lat":40.9445428,"lng":-74.0754189}},{"name":"Pawleys Island SC","value":1,"formatted_address":"Pawleys Island, SC, USA","location":{"lat":33.4332236,"lng":-79.12143130000001}},{"name":"Philadelphia","value":22,"formatted_address":"Philadelphia, PA, USA","location":{"lat":39.9525839,"lng":-75.1652215}},{"name":"Peoria","value":2,"formatted_address":"Peoria, IL, USA","location":{"lat":40.6936488,"lng":-89.5889864}},{"name":"Phoenix","value":6,"formatted_address":"Phoenix, AZ, USA","location":{"lat":33.4483771,"lng":-112.0740373}},{"name":"Perth","value":6,"formatted_address":"Perth WA, Australia","location":{"lat":-31.9505269,"lng":115.8604572}},{"name":"Petah Tikva","value":1,"formatted_address":"Petah Tikva, Israel","location":{"lat":32.084041,"lng":34.887762}},{"name":"Platteville","value":1,"formatted_address":"Platteville, WI 53818, USA","location":{"lat":42.73416,"lng":-90.4784621}},{"name":"Pittsburgh","value":6,"formatted_address":"Pittsburgh, PA, USA","location":{"lat":40.44062479999999,"lng":-79.9958864}},{"name":"Pittsburg","value":1,"formatted_address":"Pittsburg, CA, USA","location":{"lat":38.0279762,"lng":-121.8846806}},{"name":"Pocatello Idaho","value":1,"formatted_address":"Pocatello, ID, USA","location":{"lat":42.8621042,"lng":-112.4506191}},{"name":"Portland (Maine)","value":2,"formatted_address":"Portland, ME, USA","location":{"lat":43.6590993,"lng":-70.2568189}},{"name":"Poole","value":1,"formatted_address":"Poole, UK","location":{"lat":50.71505,"lng":-1.987248}},{"name":"Portland","value":11,"formatted_address":"Portland, OR, USA","location":{"lat":45.5122308,"lng":-122.6587185}},{"name":"Portsmouth","value":2,"formatted_address":"Portsmouth, UK","location":{"lat":50.8197675,"lng":-1.0879769}},{"name":"Porto","value":3,"formatted_address":"Porto, Portugal","location":{"lat":41.1579438,"lng":-8.629105299999999}},{"name":"Porto Alegre","value":1,"formatted_address":"Porto Alegre, RS, Brazil","location":{"lat":-30.0346471,"lng":-51.2176584}},{"name":"Portsmouth (US)","value":1,"formatted_address":"Portsmouth, NH 03801, USA","location":{"lat":43.0717552,"lng":-70.7625532}},{"name":"Princeton","value":5,"formatted_address":"Princeton, NJ 08544, USA","location":{"lat":40.3439888,"lng":-74.6514481}},{"name":"Quincy","value":1,"formatted_address":"Quincy, MA, USA","location":{"lat":42.2528772,"lng":-71.0022705}},{"name":"Potsdam","value":1,"formatted_address":"Potsdam, NY 13676, USA","location":{"lat":44.6697805,"lng":-74.9813084}},{"name":"Prague","value":19,"formatted_address":"Prague, Czechia","location":{"lat":50.0755381,"lng":14.4378005}},{"name":"Provo","value":2,"formatted_address":"Provo, UT, USA","location":{"lat":40.2338438,"lng":-111.6585337}},{"name":"Port Charlotte","value":1,"formatted_address":"Port Charlotte, FL, USA","location":{"lat":26.9761707,"lng":-82.09064479999999}},{"name":"Reading","value":2,"formatted_address":"Reading, OH, USA","location":{"lat":39.2236694,"lng":-84.44216410000001}},{"name":"Raleigh ","value":1,"formatted_address":"Raleigh, NC, USA","location":{"lat":35.7795897,"lng":-78.6381787}},{"name":"Richland","value":1,"formatted_address":"Richland, WA, USA","location":{"lat":46.28042000000001,"lng":-119.2751996}},{"name":"Richmond","value":3,"formatted_address":"Richmond, VA, USA","location":{"lat":37.5407246,"lng":-77.4360481}},{"name":"Riverside","value":1,"formatted_address":"Riverside, CA, USA","location":{"lat":33.9806005,"lng":-117.3754942}},{"name":"Reykjavik","value":1,"formatted_address":"Reykjavík, Iceland","location":{"lat":64.146582,"lng":-21.9426354}},{"name":"Ribeirão preto","value":1,"formatted_address":"Ribeirao Preto - Conquista, Ribeirão Preto - State of São Paulo, Brazil","location":{"lat":-21.1704008,"lng":-47.8103238}},{"name":"Raleigh","value":4,"formatted_address":"Raleigh, NC, USA","location":{"lat":35.7795897,"lng":-78.6381787}},{"name":"Reno","value":2,"formatted_address":"Reno, NV, USA","location":{"lat":39.5296329,"lng":-119.8138027}},{"name":"Riga","value":3,"formatted_address":"Riga, Latvia","location":{"lat":56.9496487,"lng":24.1051865}},{"name":"Rochester","value":2,"formatted_address":"Rochester, NY, USA","location":{"lat":43.15657789999999,"lng":-77.6088465}},{"name":"Red Deer","value":1,"formatted_address":"Red Deer, AB, Canada","location":{"lat":52.2681118,"lng":-113.8112386}},{"name":"Rio de Janeiro","value":1,"formatted_address":"Rio de Janeiro, State of Rio de Janeiro, Brazil","location":{"lat":-22.9068467,"lng":-43.1728965}},{"name":"Rotterdam","value":3,"formatted_address":"Rotterdam, Netherlands","location":{"lat":51.9244201,"lng":4.4777326}}]